[
  {"id": 1, "name": "USWAS01", "label": "Site 1", "location": "Washington, DC, U.S.A", "country": "U.S.A", "region": "NAEAST"},
  {"id": 2, "name": "USNYC01", "label": "Site 1", "location": "New York, NY, U.S.A", "country": "U.S.A", "region": "NAEAST"},
  {"id": 3, "name": "USATL01", "label": "Site 1", "location": "Atlanta, GA, U.S.A", "country": "U.S.A", "region": "NAEAST"},
  {"id": 4, "name": "USCHI01", "label": "Site 1", "location": "Chicago, IL, U.S.A", "country": "U.S.A", "region": "NACENTRAL"},
  {"id": 5, "name": "USDAL01", "label": "Site 1", "location": "Dallas, TX, U.S.A", "country": "U.S.A", "region": "NACENTRAL"},
  {"id": 6, "name": "USLAX01", "label": "Site 1", "location": "Los Angeles, CA, U.S.A", "country": "U.S.A", "region": "NAWEST"},
  {"id": 7, "name": "USSJC01", "label": "Site 1", "location": "San Jose, CA, U.S.A", "country": "U.S.A", "region": "NAWEST"},
  {"id": 71, "name": "AUMEL01", "label": "Site 1", "location": "Melbourne, Australia", "country": "Australia", "region": "OCEANIA"},
  {"id": 23, "name": "CATOR01", "label": "Site 1", "location": "Toronto,Canada", "country": "Canada", "region": "NAEAST"},
  {"id": 27, "name": "USFMT01", "label": "Site 1", "location": "Fremont, CA, U.S.A", "country": "U.S.A", "region": "NAWEST"},
  {"id": 33, "name": "USWAS11", "label": "GTT", "location": "Washington, DC, U.S.A", "country": "U.S.A", "region": "NAEAST"},
  {"id": 48, "name": "KRSEO01", "label": "Site 1", "location": "Seoul, South Korea", "country": "South Korea", "region": "ASIAPAC"},
  {"id": 13, "name": "HKHKG01", "label": "Site 1", "location": "Hong Kong", "country": "Hong Kong", "region": "ASIAPAC"},
  {"id": 15, "name": "JPTYO01", "label": "Site 1", "location": "Tokyo, Japan", "country": "Japan", "region": "ASIAPAC"},
  {"id": 56, "name": "AUSYD02", "label": "Site 2", "location": "Sydney, Australia", "country": "Australia", "region": "OCEANIA"},
  {"id": 47, "name": "SGSIN10", "label": "Tata", "location": "Singapore, Singapore", "country": "Singapore", "region": "ASIAPAC"},
  {"id": 43, "name": "NLAMS13", "label": "Site 13", "location": "Amsterdam, Netherlands", "country": "Netherlands", "region": "EUROPE"},
  {"id": 42, "name": "NLAMS12", "label": "Site 12", "location": "Amsterdam, Netherlands", "country": "Netherlands", "region": "EUROPE"},
  {"id": 20, "name": "USNYC02", "label": "Site 2", "location": "New York, NY, U.S.A", "country": "U.S.A", "region": "NAEAST"},
  {"id": 40, "name": "USSEA02", "label": "Site 2", "location": "Seattle, WA, U.S.A", "country": "U.S.A", "region": "NAWEST"},
  {"id": 18, "name": "AUADL01", "label": "Site 1", "location": "Adelaide, Australia", "country": "Australia", "region": "OCEANIA"},
  {"id": 67, "name": "ESMAD01", "label": "Site 1", "location": "Madrid, Spain", "country": "Spain", "region": "EUROPE"},
  {"id": 10, "name": "GBLON01", "label": "Site 1", "location": "London, Great Britain", "country": "Great Britain", "region": "EUROPE"},
  {"id": 21, "name": "GBLON02", "label": "Site 2", "location": "London, Great Britain", "country": "Great Britain", "region": "EUROPE"},
  {"id": 65, "name": "MXMEX01", "label": "Site 1", "location": "Mexico City, Mexio", "country": "Mexico", "region": "NACENTRAL"},
  {"id": 39, "name": "USLAX13", "label": "NTT", "location": "Los Angeles, CA, U.S.A", "country": "U.S.A", "region": "NAWEST"},
  {"id": 41, "name": "NLAMS10", "label": "Tata", "location": "Amsterdam, Netherlands", "country": "Netherlands", "region": "EUROPE"},
  {"id": 16, "name": "SGSIN01", "label": "Site 1", "location": "Singapore, Singapore", "country": "Singapore", "region": "ASIAPAC"},
  {"id": 17, "name": "AUSYD01", "label": "Site 1", "location": "Sydney, Australia", "country": "Australia", "region": "OCEANIA"},
  {"id": 46, "name": "CLSCL01", "label": "Site 1", "location": "Santiago, Chile", "country": "Chile", "region": "SOUTHAMERICA"},
  {"id": 19, "name": "NZAKL01", "label": "Site 1", "location": "Auckland, New Zealand", "country": "New Zealand", "region": "OCEANIA"},
  {"id": 25, "name": "USSFO01", "label": "Site 1", "location": "San Francisco, CA, U.S.A", "country": "U.S.A", "region": "NAWEST"},
  {"id": 70, "name": "KRSEO01", "label": "Site 1", "location": "Seoul, South Korea", "country": "South Korea", "region": "ASIAPAC"},
  {"id": 34, "name": "USWAS12", "label": "Telia", "location": "Washington, DC, U.S.A", "country": "U.S.A", "region": "NAEAST"},
  {"id": 68, "name": "INMUM01", "label": "Site 1", "location": "Mumbai, India", "country": "India", "region": "ASIAPAC"},
  {"id": 66, "name": "PLWAW01", "label": "Site 1", "location": "Warsaw, Poland", "country": "Poland", "region": "EUROPE"},
  {"id": 54, "name": "USCHI02", "label": "Site 2", "location": "Chicago, IL, U.S.A", "country": "U.S.A", "region": "NACENTRAL"},
  {"id": 29, "name": "DEFRA01", "label": "Site 1", "location": "Frankfurt, Germany", "country": "Germany", "region": "EUROPE"},
  {"id": 32, "name": "USWAS10", "label": "Tata", "location": "Washington, DC, U.S.A", "country": "U.S.A", "region": "NAEAST"},
  {"id": 11, "name": "NLAMS01", "label": "Site 1", "location": "Amsterdam, Netherlands", "country": "Netherlands", "region": "EUROPE"},
  {"id": 22, "name": "NLAMS02", "label": "Site 2", "location": "Amsterdam, Netherlands", "country": "Netherlands", "region": "EUROPE"},
  {"id": 14, "name": "INMAA01", "label": "Site 1", "location": "Chennai, India", "country": "India", "region": "ASIAPAC"},
  {"id": 53, "name": "NGLAG01", "label": "Site 1", "location": "Lagos, Nigeria", "country": "Nigeria", "region": "AFRICA"},
  {"id": 64, "name": "JPOSA01", "label": "Site 1", "location": "Osaka, Japan", "country": "Japan", "region": "ASIAPAC"},
  {"id": 35, "name": "USWAS13", "label": "NTT", "location": "Washington, DC, U.S.A", "country": "U.S.A", "region": "NAEAST"},
  {"id": 38, "name": "USLAX12", "label": "Telia", "location": "Los Angeles, CA, U.S.A", "country": "U.S.A", "region": "NAWEST"},
  {"id": 44, "name": "COBOG01", "label": "Site 1", "location": "Bogota, Colombia", "country": "Colombia", "region": "SOUTHAMERICA"},
  {"id": 28, "name": "ITMIL01", "label": "Site 1", "location": "Milan, Italy", "country": "Italy", "region": "EUROPE"},
  {"id": 30, "name": "DKCPH01", "label": "Site 1", "location": "Copenhagen, Denmark", "country": "Denmark", "region": "EUROPE"},
  {"id": 24, "name": "INBLR01", "label": "Site 1", "location": "Banglore, India", "country": "India", "region": "ASIAPAC"},
  {"id": 12, "name": "FRPAR01", "label": "Site 1", "location": "Paris, France", "country": "France", "region": "EUROPE"},
  {"id": 55, "name": "DEFRA02", "label": "Site 2", "location": "Frankfurt, Germany", "country": "Germany", "region": "EUROPE"},
  {"id": 45, "name": "BRSAO01", "label": "Site 1", "location": "Sao Paulo, Brazil", "country": "Brazil", "region": "SOUTHAMERICA"},
  {"id": 8, "name": "USSEA01", "label": "Site 1", "location": "Seattle, WA, U.S.A", "country": "U.S.A", "region": "NAWEST"},
  {"id": 50, "name": "JPTYO02", "label": "Site 1", "location": "Tokyo, Japan", "country": "Japan", "region": "ASIAPAC"},
  {"id": 26, "name": "USEWR01", "label": "Site 1", "location": "Newark NJ, U.S.A", "country": "U.S.A", "region": "NAEAST"},
  {"id": 36, "name": "USLAX10", "label": "Site 10", "location": "Los Angeles, CA, U.S.A", "country": "U.S.A", "region": "NAWEST"},
  {"id": 51, "name": "ZAJNB01", "label": "Site 1", "location": "Johannesburg, South Africa", "country": "South Africa", "region": "AFRICA"},
  {"id": 31, "name": "USMIA01", "label": "Site 1", "location": "Miami FL, U.S.A", "country": "U.S.A", "region": "NAEAST"},
  {"id": 9, "name": "ATVIE01", "label": "Site 1", "location": "Vienna, Austria", "country": "Austria", "region": "EUROPE"},
  {"id": 37, "name": "USLAX11", "label": "GTT", "location": "Los Angeles, CA, U.S.A", "country": "U.S.A", "region": "NAWEST"},
  {"id": 52, "name": "ZAJNB02", "label": "Site 2", "location": "Johannesburg, South Africa", "country": "South Africa", "region": "AFRICA"}
]
